{
  "currentBarIndex": 0,
  "hasStarted": false,
  "startTime": "2025-09-20T13:00:00-03:00",
  "version": 2,
  "bars": [
    {
      "id": 1,
      "time": "13:00",
      "name": "Bar do Mozart",
      "address": "Rua Mármore, 42",
      "coordinates": [-19.91526511154831, -43.921965572420824]
    },
    {
      "id": 2,
      "time": "13:20",
      "name": "Cunha's Bar",
      "address": "Rua Quimberlita, 320",
      "coordinates": [-19.916047664665754, -43.91426054751739]
    },
    {
      "id": 3,
      "time": "13:40",
      "name": "Bar du Pedro",
      "address": "Esquina com - Rua Quimberlita 246, R. Ten. Freitas, 245",
      "coordinates": [-19.915476460590202, -43.914173031941445]
    },
    {
      "id": 4,
      "time": "14:00",
      "name": "Bar da Lili",
      "address": "Rua Quimberlita, 254",
      "coordinates": [-19.915531111853348, -43.914126701256365]
    },
    {
      "id": 5,
      "time": "14:20",
      "name": "Mercadinho Bicalho (Bar do Nivaldo)",
      "address": "Rua Mármore, 556",
      "coordinates": [-19.91647718720985, -43.91719694358533]
    },
    {
      "id": 6,
      "time": "14:40",
      "name": "Bolão Santa Tereza",
      "address": "Rua Mármore, 681",
      "coordinates": [-19.915870098715715, -43.91851996153307]
    },
    {
      "id": 7,
      "time": "15:00",
      "name": "Casa Mojubá (Mojubá Bar)",
      "address": "Rua Mármore, 817",
      "coordinates": [-19.91700594591346, -43.91476583194152]
    },
    {
      "id": 8,
      "time": "15:20",
      "name": "Protótipo",
      "address": "Rua Professor Galba Veloso, 206",
      "coordinates": [-19.91284494561199, -43.9197111994071]
    },
    {
      "id": 9,
      "time": "15:40",
      "name": "Espeto da Esquina",
      "address": "R. Bom Despacho",
      "coordinates": [-19.915389373306088, -43.9139818761198]
    },
    {
      "id": 10,
      "time": "16:00",
      "name": "Fita Bar",
      "address": "Rua Mármore, 30",
      "coordinates": [-19.91529056042443, -43.922156674270525]
    },
    {
      "id": 11,
      "time": "16:20",
      "name": "Alpendre 70",
      "address": "Rua Mármore, 70",
      "coordinates": [-19.915376562861304, -43.921888174270286]
    },
    {
      "id": 12,
      "time": "17:00",
      "name": "Butiquim do Walter",
      "address": "Rua Mármore, 181",
      "coordinates": [-19.91559262565515, -43.92066546480846]
    },
    {
      "id": 13,
      "time": "18:10",
      "name": "Bar Bocaiuva",
      "address": "R. Paraisópolis, 550",
      "coordinates": [-19.91376753238457, -43.913363548951665]
    },
    {
      "id": 14,
      "time": "18:30",
      "name": "QUINTAL DA LAYLA by OLD BAR",
      "address": "Rua Alvinópolis, 102",
      "coordinates": [-19.913310835857562, -43.912169370228]
    },
    {
      "id": 15,
      "time": "19:00",
      "name": "Bar do Orlando (Final)",
      "address": "Rua Alvinópolis, 460",
      "coordinates": [-19.916306548706643, -43.91086776256386]
    }
  ]
}
